{"copyright":"Copyright Sveriges Radio 2016. All rights reserved.","messages":[{"id":1583523,"priority":5,"createddate":"\/Date(1452000226577+0100)\/","title":"Lv 2206 Sund–Jaren","exactlocation":"","description":"","latitude":59.137702941894531,"longitude":11.885379791259766,"category":1,"subcategory":"Färja"},{"id":1586319,"priority":3,"createddate":"\/Date(1452255758317+0100)\/","title":"E22 Oskarshamn–Mönsterås","exactlocation":"I höjd med Påslallavik","description":" Personbil med punktering står i höger körfält i höjd med Påskallavik.","latitude":57.178573608398438,"longitude":16.444423675537109,"category":0,"subcategory":"Trafikstörning"},{"id":1579726,"priority":3,"createddate":"\/Date(1452250858150+0100)\/","title":"Göteborg–Skövde–Stockholm","exactlocation":"Skövde-Falköping","description":"11 januari-11 september ställs vissa tåg in under vissa tider på sträckan. Den inställda trafiken ersätts av buss som avgår enligt särskilda tidtabeller. Räkna med längre restider än normalt.  Orsaken är arbete med kontaktledingen.  ","latitude":58.168045343561758,"longitude":13.301393323201623,"category":2,"subcategory":"Tåg"},{"id":1579747,"priority":3,"createddate":"\/Date(1451411976673+0100)\/","title":"Varberg-Uddevalla","exactlocation":"","description":"18-22/1 dagligen klockan 9:45-15:00 ersätts tågen med buss i båda riktningar på sträckan Borås-Herrljunga. Bussar avgår enligt särskilda tidtabeller. Räkna med något längre restid. Kontakta ditt tågbolag före mer information om tidtabeller och övrigt om din resa. Orsaken är kontakledningsarbeten på sträckan.","latitude":57.816602737272717,"longitude":12.531209119340534,"category":1,"subcategory":"Tåg"},{"id":1582829,"priority":4,"createddate":"\/Date(1451973278587+0100)\/","title":"Blodbussen","exactlocation":"Stenungstorg, Stenungsund","description":"5 januari, öppet mellan kl 09:00-14:30.","latitude":58.068440060171731,"longitude":11.818073349312431,"category":3,"subcategory":"Hälsa och sjukvård"},{"id":1585993,"priority":3,"createddate":"\/Date(1452238326733+0100)\/","title":"Lv 303 Ockelbo","exactlocation":"Hamrångevägen ","description":"Akut reparation av vattenläcka. ","latitude":60.898494720458984,"longitude":16.738029479980469,"category":0,"subcategory":"Vägarbete"},{"id":1586268,"priority":4,"createddate":"\/Date(1452253195987+0100)\/","title":"Varbergs kommun","exactlocation":"Moarna","description":"Akut vattenläcka. När vattnet kommer tillbaka kan det vara brunt och grumligt. Ofarligt men spola gärna tills vattnet klarnat.","latitude":57.049616331427316,"longitude":12.355649941611931,"category":3,"subcategory":"Vatten"},{"id":1407249,"priority":5,"createddate":"\/Date(1437382657240+0200)\/","title":"Rv 55 Uppsala","exactlocation":"Tpl Tycho Hedéns väg","description":"Arbete med att bygga en ny järnvägsbro över Tycho Hedéns väg. Begränsad höjd är 3,2 meter.","latitude":59.879184722900391,"longitude":17.634679794311523,"category":0,"subcategory":"Vägarbete"},{"id":1483398,"priority":3,"createddate":"\/Date(1447830550287+0100)\/","title":"Lv 282 Uppsala Almungevägen","exactlocation":"Mellan brandstationen och E4","description":"Arbete på vägen. Risk för köbildning även ut på E4 vid trafikplats Kumla.","latitude":59.846316445205872,"longitude":17.720024407748333,"category":0,"subcategory":"Vägarbete"},{"id":1553125,"priority":4,"createddate":"\/Date(1448547814650+0100)\/","title":"Mora","exactlocation":"Fridhemsgatan","description":"Avstängd mellan Moragatan och Oxbergsvägen. Omledning uppskyltad.","latitude":61.002901588480924,"longitude":14.535675134854968,"category":0,"subcategory":"Vägarbete"},{"id":1497351,"priority":3,"createddate":"\/Date(1449668783383+0100)\/","title":"Lv 120 Delary–Älmhult","exactlocation":"","description":"Begränsad framkomlighet förbi arbetet. Endast ett körfält öppet förbi så trafiken får köra växelvis. Risk för långa köer. ","latitude":56.549530029296875,"longitude":14.026314735412598,"category":0,"subcategory":"Vägarbete"},{"id":1585049,"priority":3,"createddate":"\/Date(1452153050390+0100)\/","title":"Lv 871 Skrapstad–Sävsjö","exactlocation":"","description":"Begränsad framkomlighet. Kabelarbete i marken.","latitude":57.428249359130859,"longitude":14.696342468261719,"category":0,"subcategory":"Vägarbete"},{"id":1513371,"priority":3,"createddate":"\/Date(1448533660523+0100)\/","title":"E22 Kalmar–Karlskrona","exactlocation":"tpl Ljungbyholm–Hossmo i riktning mot Karlskrona","description":"Begränsad framkomlighet. Körfält avstängt vid arbetsplats för byggnation av nya väg E22","latitude":56.638080596923828,"longitude":16.222171783447266,"category":0,"subcategory":"Vägarbete"},{"id":1586431,"priority":3,"createddate":"\/Date(1452261082753+0100)\/","title":"Rv 63 Filipstad-Karlstad","exactlocation":"kommungränsen Filipstad/Karlstad","description":"Bil i diket. personer vid vägen riktning Karlstad.","latitude":59.627772772003141,"longitude":13.945576254567129,"category":0,"subcategory":"Trafikolycka"},{"id":1585084,"priority":3,"createddate":"\/Date(1452154398573+0100)\/","title":"Rv 27 Värnamo","exactlocation":"Voxtorp–Sydsvenska krysset i riktning mot Borås","description":"Broarbete.","latitude":57.1634407043457,"longitude":14.076617240905762,"category":0,"subcategory":"Vägarbete"},{"id":1586295,"priority":3,"createddate":"\/Date(1452259040497+0100)\/","title":"E22 Malmö–Lund","exactlocation":"Tpl Kronetorp (18)–Lund S (19) i riktning mot Lund","description":"Buss står illa till.","latitude":55.6411018371582,"longitude":13.104841232299805,"category":0,"subcategory":"Trafikstörning"},{"id":1586170,"priority":3,"createddate":"\/Date(1452259989397+0100)\/","title":"E20 Vårgårda - Alingsås","exactlocation":"Efter Lagmansholm i riktning mot Alingsås.","description":"Bärgningsarbete. Går att passera.","latitude":57.997982295253756,"longitude":12.717801042665087,"category":0,"subcategory":"Trafikolycka"},{"id":1586342,"priority":3,"createddate":"\/Date(1452258434817+0100)\/","title":"Lv 127 Värnamo-Vrigstad","exactlocation":"Strax utanför Vrigstad i riktning mot Värnamo","description":"En lastbil med släp har kört i diket. Begräsnad framkomlighet","latitude":57.364264935866544,"longitude":14.4219150811648,"category":0,"subcategory":"Trafikolycka"},{"id":1586219,"priority":3,"createddate":"\/Date(1452253057720+0100)\/","title":"Norrköping","exactlocation":"Söderleden, vid tpl Ljura","description":"En personbil har kört in i en stolpe. Räddningstjänst har lämnat platsen.","latitude":58.5808219909668,"longitude":16.213703155517578,"category":0,"subcategory":"Trafikolycka"},{"id":1586373,"priority":3,"createddate":"\/Date(1452258052957+0100)\/","title":"Lv 895  Sjunnen – Skede ","exactlocation":"","description":"En stillastående lastbil på vägrenen. Sticker eventuellt ut lite i höger körfält.","latitude":57.436435699462891,"longitude":15.172584533691406,"category":0,"subcategory":"Trafikstörning"},{"id":1586208,"priority":3,"createddate":"\/Date(1452260185110+0100)\/","title":"Lv 184 Falköping-Skara","exactlocation":"I höjd med Östra Tunhem   i riktning mot Skara","description":"Endast ett körfält öppet till klockan 15.00. Bärgningnsarbete.","latitude":58.221273789556506,"longitude":13.572022313085789,"category":0,"subcategory":"Trafikolycka"},{"id":1586137,"priority":3,"createddate":"\/Date(1452256175410+0100)\/","title":"Rv 73 Nynäsvägen","exactlocation":"Vid tpl Överfors","description":"Ett körfält öppet i vardera riktning. Reparation av räcke efter tidigare olycka.","latitude":59.009784698486328,"longitude":17.943517684936523,"category":0,"subcategory":"Trafikstörning"},{"id":1586309,"priority":3,"createddate":"\/Date(1452258664510+0100)\/","title":"Lv 352 Björna-Hemling","exactlocation":"Norromsjön","description":"Flera fordon i olycka, bland annat lastbil. Vägen avstängd.","latitude":63.575362711993584,"longitude":18.547944192334487,"category":0,"subcategory":"Trafikolycka"},{"id":1487819,"priority":4,"createddate":"\/Date(1451987763557+0100)\/","title":"Värmlands län","exactlocation":"","description":"Fläckvist mycket halt. På de mindre vägarna råder det vinterväglag. ","latitude":59.8638344,"longitude":13.2893448,"category":0,"subcategory":"Halkvarning"},{"id":1586427,"priority":3,"createddate":"\/Date(1452261168233+0100)\/","title":"E4 Uppsala–Gävle","exactlocation":"Länsgränsen, norr om","description":"Fordonshaveri i riktning norrut.","latitude":60.529644012451172,"longitude":17.27149772644043,"category":0,"subcategory":"Trafikstörning"},{"id":1511542,"priority":4,"createddate":"\/Date(1452247217193+0100)\/","title":"Örebro län","exactlocation":"","description":"Fortsatt risk för halt väglag.","latitude":59.4352722,"longitude":14.7333231,"category":0,"subcategory":"Halkvarning"},{"id":1582560,"priority":3,"createddate":"\/Date(1451836460917+0100)\/","title":"Bohedenleden","exactlocation":"","description":"Färjan är inställd. Isvägen öppen för fordon upp till 2 ton.","latitude":66.306289672851563,"longitude":22.914651870727539,"category":1,"subcategory":"Färja"},{"id":1568482,"priority":3,"createddate":"\/Date(1451430236053+0100)\/","title":"Röduppleden","exactlocation":"","description":"Färjan är inställd. Isvägen öppen för fordon upp till 2 tons bruttovikt.","latitude":66.485633850097656,"longitude":22.777805328369141,"category":1,"subcategory":"Färja"},{"id":1586262,"priority":3,"createddate":"\/Date(1452258194040+0100)\/","title":"Kristianstad–Karlskrona","exactlocation":"","description":"Förseningar i tågtrafiken pga olycka när spårområdet i Gualöv.","latitude":56.070339072187863,"longitude":14.548673383508197,"category":1,"subcategory":"Tåg"},{"id":1559487,"priority":4,"createddate":"\/Date(1450673144917+0100)\/","title":"Karlskrona","exactlocation":"","description":"Förändringar i sophämtningen under 2016. Hushåll med tömning jämn vecka får soptunnan tömnd ojämn vecka och tvärtom under 2016.","latitude":56.193036564534367,"longitude":15.620761091222263,"category":3,"subcategory":"Övrigt"},{"id":1586297,"priority":4,"createddate":"\/Date(1452254884103+0100)\/","title":"Uddevalla","exactlocation":"Tjörn express","description":"Ingen busstrafik sträckan Siröd - Skärhamn hamnen i båda riktningar på grund av en vattenläcka vid Skärhamn norra från 8/1 kl.14  tillsvidare. Närmaste hållplats är Kommunalhuset.","latitude":58.322754687896342,"longitude":11.857680954677289,"category":1,"subcategory":"Buss"},{"id":1583052,"priority":3,"createddate":"\/Date(1451918856603+0100)\/","title":"Lv 564 Ammer-Stavre","exactlocation":"Ammersundet","description":"Isvägen är öppen för trafik på upp till 2 ton. Färjetrafiken är inställd.","latitude":62.829200744628906,"longitude":15.303695678710938,"category":1,"subcategory":"Färja"},{"id":1586042,"priority":3,"createddate":"\/Date(1452240123553+0100)\/","title":"Lv 156 Härryda-Hällingsjö","exactlocation":"Mellan St Övatten och Eriksmyst i båda riktningar","description":"Kabelarbete med skyddsbarriär inför borrning under väg. Flaggvakter reglerar trafiken.\n","latitude":57.659984588623047,"longitude":12.370745658874512,"category":0,"subcategory":"Vägarbete"},{"id":1582925,"priority":3,"createddate":"\/Date(1451898817150+0100)\/","title":"Lv 293 Mörtsjön–Korsgården","exactlocation":"","description":"Kabelarbete. Arbetsfordon på vägen.","latitude":60.594028472900391,"longitude":15.514145851135254,"category":0,"subcategory":"Vägarbete"},{"id":1586352,"priority":3,"createddate":"\/Date(1452256768560+0100)\/","title":"Lv 258 Hågelbyleden","exactlocation":"Vid Solhöjden i riktning mot Alby","description":"Köer. Besvärligt väglag och flera lastbilar som inte kommer upp för backen.","latitude":59.210337286811189,"longitude":17.833459936600931,"category":0,"subcategory":"Trafikstörning"},{"id":1567592,"priority":3,"createddate":"\/Date(1450780928413+0100)\/","title":"E6 Göteborg","exactlocation":"Av-/påfart från Bällskärsvägen, Tingstadsmotet, södergående","description":"Körfält stängs av i samband med schaktningsarbeten.","latitude":57.732082366943359,"longitude":11.983940124511719,"category":0,"subcategory":"Vägarbete"},{"id":1406672,"priority":3,"createddate":"\/Date(1449851288547+0100)\/","title":"E20 Partille–Lerum","exactlocation":"Jerikotunneln–Fräntorpsmotet(78)","description":"Körfält stängs av nattetid på grund av asfalteringsarbete.","latitude":57.74127197265625,"longitude":12.185935974121094,"category":0,"subcategory":"Vägarbete"},{"id":1567569,"priority":3,"createddate":"\/Date(1449849030527+0100)\/","title":"E6 vid Ringömotet","exactlocation":"Södergående","description":"Körfältsavstängning i samband med ombyggnadsarbete.\n","latitude":57.729965209960938,"longitude":11.982913970947266,"category":0,"subcategory":"Vägarbete"},{"id":1586432,"priority":3,"createddate":"\/Date(1452261088790+0100)\/","title":"E6 Munkedal-Uddevalla","exactlocation":"Hogstorpsmotet i rondellen i riikning söderut","description":"Lastbil blockerar delar av körbanan.","latitude":58.400335588406882,"longitude":11.754619041776129,"category":0,"subcategory":"Trafikstörning"},{"id":1586072,"priority":3,"createddate":"\/Date(1452250386467+0100)\/","title":"Rv 90 Sollefteå–Forsmo","exactlocation":"Vid Eds kyrka","description":"Lastbil som fastnat i backen ner mot turistvägen.","latitude":63.24157748130002,"longitude":17.207564582076127,"category":0,"subcategory":"Trafikstörning"},{"id":1586306,"priority":3,"createddate":"\/Date(1452255037640+0100)\/","title":"Rv 68 Fagersta-Lindesberg","exactlocation":"Efter avfarten mot Sälen","description":"Lastbil som inte tar sig fram i halkan. Går att passera.","latitude":59.840299934440495,"longitude":15.559907013754321,"category":0,"subcategory":"Trafikstörning"},{"id":1586378,"priority":3,"createddate":"\/Date(1452260994230+0100)\/","title":"Lv 259 Botkyrkaleden","exactlocation":"Vid Masmobacken i riktning mot Huddinge","description":"Lastbil står på tvären över vägen. Polis på plats.","latitude":59.250400543212891,"longitude":17.876026153564453,"category":0,"subcategory":"Trafikstörning"},{"id":1586259,"priority":3,"createddate":"\/Date(1452256636033+0100)\/","title":"E6, Göteborg - Uddevalla","exactlocation":"Ödsmålsbron i riktning mot Oslo","description":"Lastbilsskärm på höger väghalva.","latitude":58.110237121582031,"longitude":11.879182815551758,"category":0,"subcategory":"Trafikstörning"},{"id":1586344,"priority":3,"createddate":"\/Date(1452256631463+0100)\/","title":"Lv 993 Huskvarna–Gränna","exactlocation":"Ölmstad","description":"Lastbilssläp i diket bilen på vägen, totalstopp oklart när vägen är öppen. Välj annan väg","latitude":57.934290771060446,"longitude":14.405119174069773,"category":0,"subcategory":"Trafikolycka"},{"id":1557082,"priority":3,"createddate":"\/Date(1448892369050+0100)\/","title":"E16 Kungsgården-Sandviken","exactlocation":"Mellan tpl Åsen och tpl Sandviken Västra i riktning mot Sandviken","description":"Montering av fundament för elstolpar.","latitude":60.609512329101563,"longitude":16.647851943969727,"category":0,"subcategory":"Vägarbete"},{"id":1585970,"priority":4,"createddate":"\/Date(1452234681590+0100)\/","title":"Stockholms län","exactlocation":"","description":"Ny tidtabell 11 januari för bussar och lokalbanor. Gäller för de flesta av bussarna, Nockebybanan, Roslagsbanan, Saltsjöbanan och Tvärbanan.","latitude":59.291369598908162,"longitude":18.016136810946,"category":1,"subcategory":"Buss"},{"id":1586285,"priority":3,"createddate":"\/Date(1452260607787+0100)\/","title":"Rv 50 norr om Örebro","exactlocation":"Åby-Kvinnerstarondellen","description":"Olycka i södergående riktning. Bil som syns dåligt, står mitt på vägen. ","latitude":59.358841562728585,"longitude":15.231608159444717,"category":0,"subcategory":"Trafikolycka"},{"id":1586396,"priority":3,"createddate":"\/Date(1452260158667+0100)\/","title":"Lv 800 Färentunavägen","exactlocation":"Vid Skå flygfält","description":"Olycka med flera fordon.","latitude":59.339182293538308,"longitude":17.730267050644724,"category":0,"subcategory":"Trafikolycka"},{"id":1546988,"priority":3,"createddate":"\/Date(1447913096053+0100)\/","title":"Rv 61 Åmotsfors-Charlottenberg","exactlocation":"Dalen till Solhem ","description":"Ombyggnad till 2+1 väg.","latitude":59.784858703613281,"longitude":12.354942321777344,"category":0,"subcategory":"Vägarbete"},{"id":1578668,"priority":3,"createddate":"\/Date(1451285201983+0100)\/","title":"Lv 155 Färjeläge-Hjuvik ","exactlocation":"","description":"Ombyggnation av färjeläget vid Lilla Varholmen i riktning mot Göteborg.","latitude":57.708538055419922,"longitude":11.702760696411133,"category":0,"subcategory":"Vägarbete"},{"id":1580633,"priority":4,"createddate":"\/Date(1451885443167+0100)\/","title":"E4 Uppsalavägen","exactlocation":"Mellan Rosersberg och tpl Glädjen","description":"Omkörningsförbud för tunga lastbilar kl 06-20, gäller från årsskiftet. ","latitude":59.54021230590137,"longitude":17.906060237427646,"category":0,"subcategory":"Trafikstörning"},{"id":1584973,"priority":3,"createddate":"\/Date(1452196934180+0100)\/","title":"Kiruna kommun","exactlocation":"Karesuando, Lannavaara, Idivuoma samt nedre och övre Soppero","description":"Pga extrem kyla ställer Tekniska Verken i Kiruna idag, torsdag, in sophämtningen i kommunens östra delar. Sophämtningen återupptas så snart det blir mildare.","latitude":67.851156187100088,"longitude":20.262830433741893,"category":3,"subcategory":"Övrigt"},{"id":1584393,"priority":2,"createddate":"\/Date(1452210507553+0100)\/","title":"Luleå-Kiruna-Narvik","exactlocation":"","description":"Pga sträng kyla är tågen inställda på sträckan 6-7/1. Kontakta ditt tågbolag för information om din avgång. ","latitude":67.500936491012325,"longitude":20.428547140215517,"category":1,"subcategory":"Tåg"},{"id":1586143,"priority":3,"createddate":"\/Date(1452250336873+0100)\/","title":"Västerbottens län","exactlocation":"Vilhelmina, Dorotea, Åsele, Lycksele, Storuman, Sorsele, Tärnaby, Hemavan","description":"Postutdelning sker enbart i tätorterna på grund av kylan.","latitude":64.014221744908824,"longitude":19.467116101586136,"category":3,"subcategory":"Övrigt"},{"id":1586136,"priority":3,"createddate":"\/Date(1452248406390+0100)\/","title":"Vindeln","exactlocation":"","description":"Postutdelningen helt inställd idag. Ett strömavbrott gör att brevbärarna inte kan sortera posten. ","latitude":64.400272961753544,"longitude":19.604376162603948,"category":3,"subcategory":"Övrigt"},{"id":1586266,"priority":3,"createddate":"\/Date(1452253454123+0100)\/","title":"E4 Ånästet-Lövsele","exactlocation":"Grimsmark","description":"Renar på vägen.","latitude":64.318069458007813,"longitude":21.170553207397461,"category":0,"subcategory":"Trafikstörning"},{"id":1586078,"priority":3,"createddate":"\/Date(1452243943443+0100)\/","title":"E45 Porjus–Gällivare","exactlocation":"Stubba","description":"Renflytt pågår. Många djur och människor på och intill vägen.","latitude":67.042469842462239,"longitude":20.088196107637664,"category":0,"subcategory":"Trafikstörning"},{"id":1585249,"priority":3,"createddate":"\/Date(1452240427157+0100)\/","title":"Arlanda-Upplands Väsby","exactlocation":"","description":"Risk för förseningar på SLs pendeltåg Stockholm-Arlanda/Uppsala och fjärrtåg Stockholm-Märsta/Uppsala vidare norrut. Spårfel.","latitude":59.610487326664284,"longitude":17.890516690433948,"category":1,"subcategory":"Tåg"},{"id":1584887,"priority":4,"createddate":"\/Date(1452247729180+0100)\/","title":"Västra Götaland län","exactlocation":"","description":"Risk för halka. Låga temperaturer innebär att vägsalt inte biter.","latitude":58.3935154526836,"longitude":13.766748492849246,"category":0,"subcategory":"Halkvarning"},{"id":1505778,"priority":4,"createddate":"\/Date(1452143854343+0100)\/","title":"Jämtlands län","exactlocation":"  ","description":"Risk för isiga vägbanor.","latitude":63.4809952,"longitude":14.326333,"category":0,"subcategory":"Halkvarning"},{"id":1487657,"priority":4,"createddate":"\/Date(1452230146020+0100)\/","title":"Gävleborgs län","exactlocation":"","description":"Risk för lokal snöhalka längs kusten och i de norra delarna av länet. ","latitude":61.4704742,"longitude":16.70279,"category":0,"subcategory":"Halkvarning"},{"id":1511536,"priority":4,"createddate":"\/Date(1451950196410+0100)\/","title":"Södermanlands län","exactlocation":"","description":"Risk för lokal snöhalka på de mindre vägarna","latitude":59.2005653,"longitude":16.4798489,"category":0,"subcategory":"Halkvarning"},{"id":1511540,"priority":4,"createddate":"\/Date(1451950288960+0100)\/","title":"Uppsala län","exactlocation":"","description":"Risk för lokalt halt och besvärligt väglag, främst längs kusten.","latitude":59.96126,"longitude":17.78068,"category":0,"subcategory":"Halkvarning"},{"id":1586361,"priority":3,"createddate":"\/Date(1452258009867+0100)\/","title":"Lv 181 Vårgårda","exactlocation":"Vårgårda","description":"Singelolycka, begränsad framkomlighet.","latitude":58.049996998004119,"longitude":12.816780296071563,"category":0,"subcategory":"Trafikolycka"},{"id":1586386,"priority":3,"createddate":"\/Date(1452259570357+0100)\/","title":"Gamla Nynäsvägen","exactlocation":"Vid Skogås","description":"Singelolycka. Räddninsgtjänst på plats.","latitude":59.217228932825734,"longitude":18.14196764317969,"category":0,"subcategory":"Trafikolycka"},{"id":1586403,"priority":3,"createddate":"\/Date(1452260124067+0100)\/","title":"E4/E20 Norra länken ","exactlocation":"I början på å avfart till Klarastrandsleden i riktning mot Södertälje","description":"Singelolycka. Vägvakt på väg fram.","latitude":59.347145080566406,"longitude":18.031082153320312,"category":0,"subcategory":"Trafikstörning"},{"id":1420175,"priority":4,"createddate":"\/Date(1451909990760+0100)\/","title":"Norrbottens län","exactlocation":"  ","description":"Snöfall österifrån med risk för lokal snöhalka främst längs kusten och inlandet. ","latitude":66.74946,"longitude":21.38291,"category":0,"subcategory":"Halkvarning"},{"id":1505782,"priority":4,"createddate":"\/Date(1452098603520+0100)\/","title":"Västerbottens län","exactlocation":"","description":"Snöfall österifrån med risk för lokal snöhalka främst längs kusten och inlandet. ","latitude":64.9181442,"longitude":18.94519,"category":0,"subcategory":"Halkvarning"},{"id":1586365,"priority":3,"createddate":"\/Date(1452259293200+0100)\/","title":"Rv 87 Långsele","exactlocation":"Vid infarten Sopstation","description":"Sprängning i närområdet. Medför kortare stopp för trafik.","latitude":63.161640167236328,"longitude":17.142267227172852,"category":2,"subcategory":"Vägarbete"},{"id":1586406,"priority":3,"createddate":"\/Date(1452260197200+0100)\/","title":"Centralbron","exactlocation":"Före Riddarholmsbron i riktning mot Södermalm","description":"Stillastående bil i ett körfält. Vägvakt och bärgare på väg.","latitude":59.325624584614729,"longitude":18.064612769674532,"category":0,"subcategory":"Trafikstörning"},{"id":1586303,"priority":3,"createddate":"\/Date(1452260422563+0100)\/","title":"Rv 70 Säter-Borlänge","exactlocation":"Innan avfarten mot Solvarbo","description":"Stillastående bil i höger körfält. ","latitude":60.378938912965992,"longitude":15.681662643943982,"category":0,"subcategory":"Trafikstörning"},{"id":1586277,"priority":3,"createddate":"\/Date(1452253574337+0100)\/","title":"Rv 52 Baggetorp-Katrineholm","exactlocation":"","description":"Stillastående bil i riktning mot Katrineholm.","latitude":59.005053720342204,"longitude":16.118760769281643,"category":0,"subcategory":"Trafikstörning"},{"id":1586428,"priority":3,"createddate":"\/Date(1452260944807+0100)\/","title":"Lv 230 Eskilstuna-Stora Sundby","exactlocation":"Öja kyrka","description":"Stillastående bil i riktning mot Stora Sundby.","latitude":59.285883311027,"longitude":16.15976037252209,"category":0,"subcategory":"Trafikstörning"},{"id":1586416,"priority":3,"createddate":"\/Date(1452260746440+0100)\/","title":"E4 Luleå","exactlocation":"Tpl Notviken - tpl Norra Gäddvik","description":"Stillastående bil i södergående riktning.","latitude":65.606763299474991,"longitude":22.052996462698854,"category":0,"subcategory":"Trafikstörning"},{"id":1586368,"priority":3,"createddate":"\/Date(1452257691353+0100)\/","title":"E4 Piteå–Jävre","exactlocation":"Före södra infarten till Hortlax","description":"Stillastående bil på enkelfilig del av sträckan.","latitude":65.279523347087689,"longitude":21.446985526932657,"category":0,"subcategory":"Trafikstörning"},{"id":1586370,"priority":3,"createddate":"\/Date(1452260409630+0100)\/","title":"Rv 50 Kopparberg–Grängesberg","exactlocation":"Ett par kilometer innan Dalaporten. Norrgående.","description":"Stillastående bil. Måste över i mötande för att passera.","latitude":60.054264103767792,"longitude":14.984815826355076,"category":0,"subcategory":"Trafikstörning"},{"id":1586376,"priority":3,"createddate":"\/Date(1452258657273+0100)\/","title":"E4 Örnsköldsvik–Ullånger","exactlocation":"Skule","description":"Stillastående buss.","latitude":63.153373718261719,"longitude":18.415229797363281,"category":0,"subcategory":"Trafikstörning"},{"id":1510364,"priority":3,"createddate":"\/Date(1452258098560+0100)\/","title":"Jönköpings län","exactlocation":"","description":"Stor halkrisk i hela området. Ett nederbördsområde drar in över södra Sverige under fredagen med risk för stora trafikproblem.","latitude":57.47894,"longitude":14.3679695,"category":0,"subcategory":"Halkvarning"},{"id":1510366,"priority":3,"createddate":"\/Date(1452259496257+0100)\/","title":"Kalmar län","exactlocation":"","description":"Stor halkrisk i hela området. Ett nederbördsområde drar in över södra Sverige under fredagen med risk för stora trafikproblem.","latitude":56.8659172,"longitude":15.9477434,"category":0,"subcategory":"Halkvarning"},{"id":1510367,"priority":3,"createddate":"\/Date(1452250393423+0100)\/","title":"Kronobergs län","exactlocation":"","description":"Stor halkrisk i hela området. Ett nederbördsområde drar in över södra Sverige under fredagen med risk för stora trafikproblem.","latitude":56.7490959,"longitude":14.3933315,"category":0,"subcategory":"Halkvarning"},{"id":1511541,"priority":3,"createddate":"\/Date(1452250361067+0100)\/","title":"Östergötlands län","exactlocation":"","description":"Stor halkrisk i hela området. Ett nederbördsområde drar in över södra Sverige under fredagen med risk för stora trafikproblem.","latitude":58.3364258,"longitude":15.6248283,"category":0,"subcategory":"Halkvarning"},{"id":1583964,"priority":3,"createddate":"\/Date(1452175236833+0100)\/","title":"Stugun","exactlocation":"","description":"Stuguns hälsocentral är stängd på grund av flytt till nya lokaler. Akuta besök hänvisas till Hammarstrands hälsocentral.","latitude":63.170793371285214,"longitude":15.611733882894738,"category":2,"subcategory":"Hälsa och sjukvård"},{"id":1585513,"priority":3,"createddate":"\/Date(1452237288633+0100)\/","title":"Västerbotten","exactlocation":"","description":"Störningar i tågtrafiken på grund av den stränga kylan. Tåg från Lycksele, Umeå och Vindeln ersätts med buss. Kvällsturen Umeå-Luleå är inställd och morgonturen från Luleå-Umeå är inställd utan ersättningsbuss.","latitude":63.829796991726674,"longitude":20.273676145563311,"category":1,"subcategory":"Tåg"},{"id":1546358,"priority":5,"createddate":"\/Date(1448822530847+0100)\/","title":"Midvägen Östersund","exactlocation":"","description":"Till följd av ökad obehörig trafik vid Lugnvikskolan stängs Midvägen av för trafik mellan 07.00-17.00. Under den tiden får endast fordon i linjetrafik samt fordon med rörelsehindrad person som innehar parkeringstillstånd färdas på vägen.","latitude":63.205564994924174,"longitude":14.630246761853261,"category":0,"subcategory":"Trafikstörning"},{"id":1586359,"priority":3,"createddate":"\/Date(1452257219267+0100)\/","title":"Lv 836 Nässjö–Fredriksdal","exactlocation":"Bodaberg","description":"Trafikolycka","latitude":57.631712711352129,"longitude":14.636090477616596,"category":0,"subcategory":"Trafikolycka"},{"id":1586415,"priority":3,"createddate":"\/Date(1452260906180+0100)\/","title":"E4 Gränna–Huskvarna","exactlocation":"Strax söder om Västanå","description":"Trafikolycka begränsad framkomlighet","latitude":57.986344140115825,"longitude":14.409583552842866,"category":0,"subcategory":"Trafikolycka"},{"id":1586380,"priority":3,"createddate":"\/Date(1452258877613+0100)\/","title":"Lv 214 söder om Eskilstuna","exactlocation":"Hållsta","description":"Trafikolycka med minibuss.","latitude":59.291313046733492,"longitude":16.446282555782677,"category":0,"subcategory":"Trafikolycka"},{"id":1586401,"priority":3,"createddate":"\/Date(1452259899500+0100)\/","title":"Rv 95 Boliden–Skellefteå","exactlocation":"Varuträsk","description":"Tre renar på fel sida viltstängslet.","latitude":64.806808647496823,"longitude":20.70399007694763,"category":0,"subcategory":"Trafikstörning"},{"id":1586374,"priority":3,"createddate":"\/Date(1452260478913+0100)\/","title":"Rv 62 Munkfors–Forshaga","exactlocation":"Korsningen till Dömle","description":"Tre älgar på vägen.","latitude":59.60706177756817,"longitude":13.446051564466091,"category":0,"subcategory":"Trafikstörning"},{"id":1586050,"priority":3,"createddate":"\/Date(1452242125880+0100)\/","title":"E22 Karlskrona–Ronneby","exactlocation":"Tpl Karlskrona Ö (64)–Ronneby Ö (58) i riktning mot Kristianstad","description":"Tvätt av skyltar på de 2-filiga delarna av vägen. Begränsad framkomlighet.","latitude":56.206211090087891,"longitude":15.64116096496582,"category":0,"subcategory":"Vägarbete"},{"id":1586355,"priority":3,"createddate":"\/Date(1452257003743+0100)\/","title":"Tjörn, Skärhamn","exactlocation":"Mellan Kommunhuset och Krossekärrsbro","description":"Vattenläcka i centrala Skärhamn. Bussar kan ej angöra hållplatserna mellan Kommunhuset och Krossekärrsbro.","latitude":57.989130752388554,"longitude":11.546662151764696,"category":1,"subcategory":"Buss"},{"id":1586354,"priority":3,"createddate":"\/Date(1452256831613+0100)\/","title":"Tjörn, Skärhamn","exactlocation":"Storgatan vid pizzerian.","description":"Vattenläcka medför att inga större fordon eller bussar kan passera centrala Skärhamn. Läckan väntas vara åtgärdad tidigast under lördagen.","latitude":57.993275398191408,"longitude":11.54992021704547,"category":0,"subcategory":"Trafikstörning"},{"id":1586275,"priority":4,"createddate":"\/Date(1452253532200+0100)\/","title":"Haverdal","exactlocation":"","description":"Vattenläcka på Violvägen som orsakar uteblivet vatten för boende i området. Problemet åtgärdas under dagen.","latitude":56.729540427960842,"longitude":12.67214784381733,"category":3,"subcategory":"Vatten"},{"id":1487662,"priority":4,"createddate":"\/Date(1451948999437+0100)\/","title":"Dalarnas län","exactlocation":"","description":"Vinterväglag med isiga vägbanor.","latitude":60.7344055,"longitude":14.7284212,"category":0,"subcategory":"Halkvarning"},{"id":1570305,"priority":3,"createddate":"\/Date(1451137478540+0100)\/","title":"Uppsala","exactlocation":"Stationsgatan/Strandbogatan","description":"Vägarbete, stängt för gående och cyklister. ","latitude":59.856440282979328,"longitude":17.653565478384916,"category":0,"subcategory":"Vägarbete"},{"id":1586243,"priority":3,"createddate":"\/Date(1452259735173+0100)\/","title":"Lv 2083 Bromölla–Gualöv","exactlocation":"Kristianstadsvägen vid tpl Gualöv","description":"Vägen avstängd. Välj om möjligt annan väg.","latitude":56.049091339111328,"longitude":14.433426856994629,"category":0,"subcategory":"Trafikstörning"},{"id":1537497,"priority":5,"createddate":"\/Date(1448822506417+0100)\/","title":"Lv 1019 vid Storulvån båda riktningarna","exactlocation":"","description":"Vägen till Storulvån är vinterstängd mellan 1/11 - 31/1.","latitude":63.215427398681641,"longitude":12.406817436218262,"category":0,"subcategory":"Trafikstörning"},{"id":1578911,"priority":3,"createddate":"\/Date(1452241335127+0100)\/","title":"Lv 641 Söderala-Ale","exactlocation":"","description":"Vägen är avstängd för vägarbete dagtid mellan kl 06:30-16:30.","latitude":61.318500518798828,"longitude":16.923006057739258,"category":0,"subcategory":"Vägarbete"},{"id":1586141,"priority":3,"createddate":"\/Date(1452251429543+0100)\/","title":"E4 Luleå","exactlocation":"Storheden","description":"Vägen öppen efter tidigare bärgning.","latitude":65.6111397512916,"longitude":22.055200427267177,"category":0,"subcategory":"Trafikstörning"},{"id":1558430,"priority":4,"createddate":"\/Date(1449257762383+0100)\/","title":"Lv 531 Funäsdalen-Ljungdalen ","exactlocation":"Från Mittådalen till Ljungdalen ","description":"Vägen över Flatruet är nattstängd mellan klockan 22:00-06:00 under perioden 1 December-15 April. Vid besvärligt väder kan vägen stängas med kort varsel även under annan tid.","latitude":62.775653839111328,"longitude":12.765754699707031,"category":0,"subcategory":"Trafikstörning"},{"id":1510363,"priority":4,"createddate":"\/Date(1452250927423+0100)\/","title":"Blekinge län","exactlocation":"","description":"Övervägande moddiga vägar med inslag av lössnö. Risk för halka när snö och snöblandad nederbörd faller på kalla vägbanor.","latitude":56.3117943,"longitude":15.2829609,"category":0,"subcategory":"Halkvarning"},{"id":1510365,"priority":4,"createddate":"\/Date(1452249428713+0100)\/","title":"Skåne län","exactlocation":"","description":"Övervägande moddiga vägar med lössnö eller packad snö. Snödrev kan förekomma i samband med hårda vindar. Risk för halka i hela länet när snö och snöblandad nederbörd faller på kalla vägbanor. ","latitude":55.88818,"longitude":13.6161013,"category":0,"subcategory":"Halkvarning"},{"id":1582790,"priority":3,"createddate":"\/Date(1451884192693+0100)\/","title":"Köpenhamn–Malmö","exactlocation":"","description":"Tåg från Danmark mot Sverige vänder på Kastrup/Copenhagen Airport eftersom det genomförs id-kontroll. Efter genomförd id-kontroll går det tåg vidare mot Sverige. ","latitude":55.584388200455216,"longitude":12.93161681796953,"category":1,"subcategory":"Tåg"},{"id":1578720,"priority":3,"createddate":"\/Date(1452240082300+0100)\/","title":"Pendeltåg","exactlocation":"Stockholm–Sundbyberg–Bålsta","description":"Bussar ersätter pendeltågen på sträckan Sundbyberg-Bålsta och omvänt på söndagar kl. 04:30-08:50.","latitude":59.370586123324252,"longitude":17.9309824934449,"category":1,"subcategory":"Tåg"},{"id":1564995,"priority":4,"createddate":"\/Date(1450886984233+0100)\/","title":"Västberga-Älvsjö","exactlocation":"Västberga allé bron som går över järnvägen och Åbyvägen","description":"Bron stängd för renovering från 14 december. Kommer att vara avstängd för biltrafik till sommaren 2017. ","latitude":59.288883209228516,"longitude":18.018430709838867,"category":0,"subcategory":"Vägarbete"},{"id":1586287,"priority":4,"createddate":"\/Date(1452255524987+0100)\/","title":"Bussar och lokalbanor","exactlocation":"","description":"Måndag 11 januari byts tidtabell för de flesta bussar, Nockebybanan, Roslagsbanan, Salstjöbanan och Tvärbanan.","latitude":59.33724922080409,"longitude":18.049281412961079,"category":1,"subcategory":"Buss"},{"id":1380130,"priority":3,"createddate":"\/Date(1449850891697+0100)\/","title":"Lv190 Gråbovägen","exactlocation":"Bergsjökrysset","description":"Rondell byggs i korsningen Gråbovägen/Bergsjövägen som en del i den större ombyggnaden av Gråbovägen. ","latitude":57.7848526286231,"longitude":12.088115548634436,"category":0,"subcategory":"Vägarbete"},{"id":1580629,"priority":4,"createddate":"\/Date(1451884373983+0100)\/","title":"Stockholm ","exactlocation":"Fleminggatan och Kungsgatan","description":"Dubbdäcksförbud från 1 januari. Hela Fleminggatan, samt Kungsgatan mellan Sveavägen och Birger Jarlsgatan. ","latitude":59.333367149183388,"longitude":18.054859537572508,"category":0,"subcategory":"Trafikstörning"},{"id":1580627,"priority":3,"createddate":"\/Date(1451982009047+0100)\/","title":"Södermalm ","exactlocation":"Slussenområdet","description":"Bron närmast Riddarfjärden stängd för biltrafik. Katarinavägen stängd för biltrafik i höjd med Katarinagaraget, gående, cyklister och bussar kan passera. Vägen runt huset ned mot Stadsgårdsleden förblir öppen.","latitude":59.321246225653972,"longitude":18.072120243796284,"category":0,"subcategory":"Trafikstörning"},{"id":1511538,"priority":4,"createddate":"\/Date(1452245936360+0100)\/","title":"Stockholms län","exactlocation":"","description":"Risk för halt väglag. ","latitude":59.3269844,"longitude":17.8068523,"category":0,"subcategory":"Halkvarning"},{"id":1582221,"priority":3,"createddate":"\/Date(1452228318830+0100)\/","title":"Kils kommun","exactlocation":"Högboda","description":"Trycket är tillbaka i vattenledningarna men kokningsrekommendationen kvarstår. Nya prover tas måndag till torsdag.","latitude":59.559481703114152,"longitude":13.054766663358778,"category":3,"subcategory":"Vatten"},{"id":1582786,"priority":4,"createddate":"\/Date(1452142357010+0100)\/","title":"Slussen","exactlocation":"","description":"Bussarna fortsätter gå från hållplatserna på Katarinavägen och Södermalmstorg. Hållplatsen Slussplan tas bort, de närliggande hållplatserna Räntmästartrappan och Kornhamnstorg är kvar.\n","latitude":59.320388578164923,"longitude":18.07182700151748,"category":1,"subcategory":"Buss"}]}