{"copyright":"Copyright Sveriges Radio 2016. All rights reserved.","messages":[{"id":1583523,"priority":5,"createddate":"\/Date(1452000226577+0100)\/","title":"Lv 2206 Sund–Jaren","exactlocation":"","description":"","latitude":59.137702941894531,"longitude":11.885379791259766,"category":1,"subcategory":"Färja"},{"id":1579747,"priority":3,"createddate":"\/Date(1451411976673+0100)\/","title":"Varberg-Uddevalla","exactlocation":"","description":"18-22/1 dagligen klockan 9:45-15:00 ersätts tågen med buss i båda riktningar på sträckan Borås-Herrljunga. Bussar avgår enligt särskilda tidtabeller. Räkna med något längre restid. Kontakta ditt tågbolag före mer information om tidtabeller och övrigt om din resa. Orsaken är kontakledningsarbeten på sträckan.","latitude":57.816602737272717,"longitude":12.531209119340534,"category":1,"subcategory":"Tåg"},{"id":1582829,"priority":4,"createddate":"\/Date(1451973278587+0100)\/","title":"Blodbussen","exactlocation":"Stenungstorg, Stenungsund","description":"5 januari, öppet mellan kl 09:00-14:30.","latitude":58.068440060171731,"longitude":11.818073349312431,"category":3,"subcategory":"Hälsa och sjukvård"},{"id":1407249,"priority":5,"createddate":"\/Date(1437382657240+0200)\/","title":"Rv 55 Uppsala","exactlocation":"Tpl Tycho Hedéns väg","description":"Arbete med att bygga en ny järnvägsbro över Tycho Hedéns väg. Begränsad höjd är 3,2 meter.","latitude":59.879184722900391,"longitude":17.634679794311523,"category":0,"subcategory":"Vägarbete"},{"id":1483398,"priority":3,"createddate":"\/Date(1447830550287+0100)\/","title":"Lv 282 Uppsala Almungevägen","exactlocation":"Mellan brandstationen och E4","description":"Arbete på vägen. Risk för köbildning även ut på E4 vid trafikplats Kumla.","latitude":59.846316445205872,"longitude":17.720024407748333,"category":0,"subcategory":"Vägarbete"},{"id":1553125,"priority":4,"createddate":"\/Date(1448547814650+0100)\/","title":"Mora","exactlocation":"Fridhemsgatan","description":"Avstängd mellan Moragatan och Oxbergsvägen. Omledning uppskyltad.","latitude":61.002901588480924,"longitude":14.535675134854968,"category":0,"subcategory":"Vägarbete"},{"id":1551339,"priority":3,"createddate":"\/Date(1449823361427+0100)\/","title":"Lv 864 Danholn-Sundborn","exactlocation":"Överbackavägen","description":"Avstängt från 26/11 ca kl. 11:00. Pga arbeten med vatten och avlopp.","latitude":60.623680114746094,"longitude":15.79430103302002,"category":0,"subcategory":"Vägarbete"},{"id":1497351,"priority":3,"createddate":"\/Date(1449668783383+0100)\/","title":"Lv 120 Delary–Älmhult","exactlocation":"","description":"Begränsad framkomlighet förbi arbetet. Endast ett körfält öppet förbi så trafiken får köra växelvis. Risk för långa köer. ","latitude":56.549530029296875,"longitude":14.026314735412598,"category":0,"subcategory":"Vägarbete"},{"id":1513371,"priority":3,"createddate":"\/Date(1448533660523+0100)\/","title":"E22 Kalmar–Karlskrona","exactlocation":"tpl Ljungbyholm–Hossmo i riktning mot Karlskrona","description":"Begränsad framkomlighet. Körfält avstängt vid arbetsplats för byggnation av nya väg E22","latitude":56.638080596923828,"longitude":16.222171783447266,"category":0,"subcategory":"Vägarbete"},{"id":1584529,"priority":3,"createddate":"\/Date(1452093362623+0100)\/","title":"Rv 90 Näsåker-Sollefteå","exactlocation":"Vid Nordanflo ungefär","description":"En renflock uppehåller sig på körbanan.","latitude":63.390300249929048,"longitude":16.978979680508367,"category":0,"subcategory":"Trafikstörning"},{"id":1584670,"priority":3,"createddate":"\/Date(1452105708573+0100)\/","title":"E4 Gnarp-Sundsvall","exactlocation":"I trakterna av länsgränsen Gävleborg/Västernorrland, ca 1-2 km före Armsjön","description":"Ett däck ligger åt vänster på körbanan. Enfilig sträcka.","latitude":62.1503671960991,"longitude":17.345886514968182,"category":0,"subcategory":"Trafikstörning"},{"id":1505778,"priority":4,"createddate":"\/Date(1452070706963+0100)\/","title":"Jämtlands län","exactlocation":"  ","description":"Ett snöfallsområde berör länet, risk för lokal snöhalka","latitude":63.4809952,"longitude":14.326333,"category":0,"subcategory":"Halkvarning"},{"id":1584631,"priority":3,"createddate":"\/Date(1452106383157+0100)\/","title":"Vaggeryds kommun","exactlocation":"Hok, Svenarum","description":"Ett strömavbrott berör ca 1000 av Eons kunder. Strömmen beräknas komma tillbaka kl 21. ","latitude":57.51671974514128,"longitude":14.285874384125512,"category":3,"subcategory":"El"},{"id":1571907,"priority":4,"createddate":"\/Date(1451383257893+0100)\/","title":"Nässjö–Vetlanda–Nässjö","exactlocation":"Krösatågen","description":"Flera avgångar inställda och ersatta av buss vardagar från 18 december till 7 januari.","latitude":57.65196717930656,"longitude":14.705582167122488,"category":1,"subcategory":"Tåg"},{"id":1487819,"priority":4,"createddate":"\/Date(1451987763557+0100)\/","title":"Värmlands län","exactlocation":"","description":"Fläckvist mycket halt. På de mindre vägarna råder det vinterväglag. ","latitude":59.8638344,"longitude":13.2893448,"category":0,"subcategory":"Halkvarning"},{"id":1510366,"priority":4,"createddate":"\/Date(1452100231743+0100)\/","title":"Kalmar län","exactlocation":"","description":"Fortsatt risk för halka.","latitude":56.8659172,"longitude":15.9477434,"category":0,"subcategory":"Halkvarning"},{"id":1510363,"priority":4,"createddate":"\/Date(1452100268390+0100)\/","title":"Blekinge län","exactlocation":"","description":"Fortsatt risk för halt väglag.","latitude":56.3117943,"longitude":15.2829609,"category":0,"subcategory":"Halkvarning"},{"id":1510364,"priority":4,"createddate":"\/Date(1452103780500+0100)\/","title":"Jönköpings län","exactlocation":"","description":"Fortsatt risk för halt väglag.","latitude":57.47894,"longitude":14.3679695,"category":0,"subcategory":"Halkvarning"},{"id":1510367,"priority":4,"createddate":"\/Date(1452097011900+0100)\/","title":"Kronobergs län","exactlocation":"","description":"Fortsatt risk för halt väglag.","latitude":56.7490959,"longitude":14.3933315,"category":0,"subcategory":"Halkvarning"},{"id":1511538,"priority":4,"createddate":"\/Date(1452099310147+0100)\/","title":"Stockholms län","exactlocation":"","description":"Fortsatt risk för halt väglag.","latitude":59.3269844,"longitude":17.8068523,"category":0,"subcategory":"Halkvarning"},{"id":1511542,"priority":4,"createddate":"\/Date(1452099292160+0100)\/","title":"Örebro län","exactlocation":"","description":"Fortsatt risk för halt väglag.","latitude":59.4352722,"longitude":14.7333231,"category":0,"subcategory":"Halkvarning"},{"id":1511541,"priority":4,"createddate":"\/Date(1452097002167+0100)\/","title":"Östergötlands län","exactlocation":"","description":"Fortsatt risk för halt väglag.","latitude":58.3364258,"longitude":15.6248283,"category":0,"subcategory":"Halkvarning"},{"id":1582560,"priority":3,"createddate":"\/Date(1451836460917+0100)\/","title":"Bohedenleden","exactlocation":"","description":"Färjan är inställd. Isvägen öppen för fordon upp till 2 ton.","latitude":66.306289672851563,"longitude":22.914651870727539,"category":1,"subcategory":"Färja"},{"id":1568482,"priority":3,"createddate":"\/Date(1451430236053+0100)\/","title":"Röduppleden","exactlocation":"","description":"Färjan är inställd. Isvägen öppen för fordon upp till 2 tons bruttovikt.","latitude":66.485633850097656,"longitude":22.777805328369141,"category":1,"subcategory":"Färja"},{"id":1559487,"priority":4,"createddate":"\/Date(1450673144917+0100)\/","title":"Karlskrona","exactlocation":"","description":"Förändringar i sophämtningen under 2016. Hushåll med tömning jämn vecka får soptunnan tömnd ojämn vecka och tvärtom under 2016.","latitude":56.193036564534367,"longitude":15.620761091222263,"category":3,"subcategory":"Övrigt"},{"id":1579489,"priority":4,"createddate":"\/Date(1452008110680+0100)\/","title":"Stockholms län","exactlocation":"","description":"Inga blodbussar är ute på onsdag 6/1. Blodbussar torsdag 7/1 Kungsängen Centrum inne på torget, Vallentuna Centrum Tunatorg 17.","latitude":59.321777576813048,"longitude":17.997000126836259,"category":3,"subcategory":"Hälsa och sjukvård"},{"id":1583052,"priority":3,"createddate":"\/Date(1451918856603+0100)\/","title":"Lv 564 Ammer-Stavre","exactlocation":"Ammersundet","description":"Isvägen är öppen för trafik på upp till 2 ton. Färjetrafiken är inställd.","latitude":62.829200744628906,"longitude":15.303695678710938,"category":1,"subcategory":"Färja"},{"id":1582925,"priority":3,"createddate":"\/Date(1451898817150+0100)\/","title":"Lv 293 Mörtsjön–Korsgården","exactlocation":"","description":"Kabelarbete. Arbetsfordon på vägen.","latitude":60.594028472900391,"longitude":15.514145851135254,"category":0,"subcategory":"Vägarbete"},{"id":1567592,"priority":3,"createddate":"\/Date(1450780928413+0100)\/","title":"E6 Göteborg","exactlocation":"Av-/påfart från Bällskärsvägen, Tingstadsmotet, södergående","description":"Körfält stängs av i samband med schaktningsarbeten.","latitude":57.732082366943359,"longitude":11.983940124511719,"category":0,"subcategory":"Vägarbete"},{"id":1406672,"priority":3,"createddate":"\/Date(1449851288547+0100)\/","title":"E20 Partille–Lerum","exactlocation":"Jerikotunneln–Fräntorpsmotet(78)","description":"Körfält stängs av nattetid på grund av asfalteringsarbete.","latitude":57.74127197265625,"longitude":12.185935974121094,"category":0,"subcategory":"Vägarbete"},{"id":1567569,"priority":3,"createddate":"\/Date(1449849030527+0100)\/","title":"E6 vid Ringömotet","exactlocation":"Södergående","description":"Körfältsavstängning i samband med ombyggnadsarbete.\n","latitude":57.729965209960938,"longitude":11.982913970947266,"category":0,"subcategory":"Vägarbete"},{"id":1584463,"priority":3,"createddate":"\/Date(1452086139070+0100)\/","title":"Slussen, Skeppsbron","exactlocation":"Vid Södermalmstorg och Saltsjörampen","description":"Långa och oregelbundna intervaller vid rött ljus. Berör framförallt trafik från Hornsgatan mot Skeppsbron. Reparation är begärd.","latitude":59.320677111569665,"longitude":18.072762687108984,"category":0,"subcategory":"Trafikstörning"},{"id":1584576,"priority":3,"createddate":"\/Date(1452096967077+0100)\/","title":"Lv201 Moholm","exactlocation":"","description":"Lös kalv i området.","latitude":58.607539181447876,"longitude":14.037358411249018,"category":0,"subcategory":"Trafikstörning"},{"id":1557082,"priority":3,"createddate":"\/Date(1448892369050+0100)\/","title":"E16 Kungsgården-Sandviken","exactlocation":"Mellan tpl Åsen och tpl Sandviken Västra i riktning mot Sandviken","description":"Montering av fundament för elstolpar.","latitude":60.609512329101563,"longitude":16.647851943969727,"category":0,"subcategory":"Vägarbete"},{"id":1546988,"priority":3,"createddate":"\/Date(1447913096053+0100)\/","title":"Rv 61 Åmotsfors-Charlottenberg","exactlocation":"Dalen till Solhem ","description":"Ombyggnad till 2+1 väg.","latitude":59.784858703613281,"longitude":12.354942321777344,"category":0,"subcategory":"Vägarbete"},{"id":1578668,"priority":3,"createddate":"\/Date(1451285201983+0100)\/","title":"Lv 155 Färjeläge-Hjuvik ","exactlocation":"","description":"Ombyggnation av färjeläget vid Lilla Varholmen i riktning mot Göteborg.","latitude":57.708538055419922,"longitude":11.702760696411133,"category":0,"subcategory":"Vägarbete"},{"id":1580633,"priority":4,"createddate":"\/Date(1451885443167+0100)\/","title":"E4 Uppsalavägen","exactlocation":"Mellan Rosersberg och tpl Glädjen","description":"Omkörningsförbud för tunga lastbilar kl 06-20, gäller från årsskiftet. ","latitude":59.54021230590137,"longitude":17.906060237427646,"category":0,"subcategory":"Trafikstörning"},{"id":1584630,"priority":3,"createddate":"\/Date(1452107030630+0100)\/","title":"E18 Enköping-Västerås","exactlocation":"Precis innan Frösvitunneln, mot Västerås","description":"Personbil i vägrenen. ","latitude":59.641056060791016,"longitude":16.900794982910156,"category":0,"subcategory":"Trafikstörning"},{"id":1584393,"priority":3,"createddate":"\/Date(1452107965980+0100)\/","title":"Boden-Kiruna-Narvik","exactlocation":"","description":"Pga hård kyöla är det just nu störningar i tågtrafiken. Tåg ställs in helt eller på delsträckor under 6-7/1. Kontakta ditt tågbolag för information om din avgång. ","latitude":67.500936491012325,"longitude":20.428547140215517,"category":1,"subcategory":"Tåg"},{"id":1584513,"priority":3,"createddate":"\/Date(1452101165183+0100)\/","title":"Rv 95 Skellefteå-Boliden","exactlocation":"Vid avfarten Varuträsk","description":"Renar på vägsidan av viltstängslet. ","latitude":64.801818629367247,"longitude":20.721546316684819,"category":0,"subcategory":"Trafikstörning"},{"id":1583257,"priority":3,"createddate":"\/Date(1452101089527+0100)\/","title":"Lv 514 Remmet-Vemdalen","exactlocation":"Mellan Remmet och Vemhån","description":"Renar uppehåller sig i området.","latitude":62.205706850909955,"longitude":14.161828274774516,"category":0,"subcategory":"Trafikstörning"},{"id":1511536,"priority":4,"createddate":"\/Date(1451950196410+0100)\/","title":"Södermanlands län","exactlocation":"","description":"Risk för lokal snöhalka på de mindre vägarna","latitude":59.2005653,"longitude":16.4798489,"category":0,"subcategory":"Halkvarning"},{"id":1511540,"priority":4,"createddate":"\/Date(1451950288960+0100)\/","title":"Uppsala län","exactlocation":"","description":"Risk för lokalt halt och besvärligt väglag, främst längs kusten.","latitude":59.96126,"longitude":17.78068,"category":0,"subcategory":"Halkvarning"},{"id":1584307,"priority":3,"createddate":"\/Date(1452089494877+0100)\/","title":"Skåne län","exactlocation":"","description":"SMHI klass 1-varning: snöfall. I sydligaste delen tidvis kraftiga snöbyar österifrån som, fram till i natt, lokalt kan ge stora snömängder.","latitude":55.592984489026882,"longitude":13.20501267281594,"category":3,"subcategory":"Väder"},{"id":1420175,"priority":4,"createddate":"\/Date(1451909990760+0100)\/","title":"Norrbottens län","exactlocation":"  ","description":"Snöfall österifrån med risk för lokal snöhalka främst längs kusten och inlandet. ","latitude":66.74946,"longitude":21.38291,"category":0,"subcategory":"Halkvarning"},{"id":1505782,"priority":4,"createddate":"\/Date(1452098603520+0100)\/","title":"Västerbottens län","exactlocation":"","description":"Snöfall österifrån med risk för lokal snöhalka främst längs kusten och inlandet. ","latitude":64.9181442,"longitude":18.94519,"category":0,"subcategory":"Halkvarning"},{"id":1584666,"priority":3,"createddate":"\/Date(1452105743783+0100)\/","title":"Lv 276 Rosenkälla","exactlocation":"På påfarten till e18 mot Norrtälje","description":"Stillastående bil. Syns dåligt.","latitude":59.49792950877508,"longitude":18.165454810814548,"category":0,"subcategory":"Trafikstörning"},{"id":1584667,"priority":3,"createddate":"\/Date(1452107689700+0100)\/","title":"E4 Gnarp-Sundsvall","exactlocation":"Nära Armsjön","description":"Stopp i båda riktningarna.","latitude":62.166616356747035,"longitude":17.355467048818387,"category":0,"subcategory":"Trafikolycka"},{"id":1510365,"priority":4,"createddate":"\/Date(1452100253570+0100)\/","title":"Skåne län","exactlocation":"","description":"Stor risk för halka i södra delarna av länet. I övriga länet mestadels torra vägar med minusgrader i vägytan.","latitude":55.88818,"longitude":13.6161013,"category":0,"subcategory":"Halkvarning"},{"id":1584582,"priority":3,"createddate":"\/Date(1452102460207+0100)\/","title":"Värmland","exactlocation":"Kil","description":"Strömmen är tillbaka. Avbrottet berodde på kylan och därmed ovanligt hård belastning.","latitude":59.503540052796794,"longitude":13.320565955459768,"category":3,"subcategory":"El"},{"id":1546358,"priority":5,"createddate":"\/Date(1448822530847+0100)\/","title":"Midvägen Östersund","exactlocation":"","description":"Till följd av ökad obehörig trafik vid Lugnvikskolan stängs Midvägen av för trafik mellan 07.00-17.00. Under den tiden får endast fordon i linjetrafik samt fordon med rörelsehindrad person som innehar parkeringstillstånd färdas på vägen.","latitude":63.205564994924174,"longitude":14.630246761853261,"category":0,"subcategory":"Trafikstörning"},{"id":1584654,"priority":3,"createddate":"\/Date(1452106683347+0100)\/","title":"Lv 201 Moholm-Ullervad","exactlocation":"Precis i höjd med kommungränsen mellan Mariestad och Töreboda. ","description":"Trafikolycka. ","latitude":58.622393573316074,"longitude":13.938414773331083,"category":0,"subcategory":"Trafikolycka"},{"id":1584338,"priority":3,"createddate":"\/Date(1452107746970+0100)\/","title":"Lessebo kommun","exactlocation":"Skruv","description":"Vattenläcka som gör att hushåll på Östra infarten är utan vatten. Vatten finns att hämta på Furugården.","latitude":56.677230425804751,"longitude":15.370599421188116,"category":3,"subcategory":"Vatten"},{"id":1487662,"priority":4,"createddate":"\/Date(1451948999437+0100)\/","title":"Dalarnas län","exactlocation":"","description":"Vinterväglag med isiga vägbanor.","latitude":60.7344055,"longitude":14.7284212,"category":0,"subcategory":"Halkvarning"},{"id":1570305,"priority":3,"createddate":"\/Date(1451137478540+0100)\/","title":"Uppsala","exactlocation":"Stationsgatan/Strandbogatan","description":"Vägarbete, stängt för gående och cyklister. ","latitude":59.856440282979328,"longitude":17.653565478384916,"category":0,"subcategory":"Vägarbete"},{"id":1537497,"priority":5,"createddate":"\/Date(1448822506417+0100)\/","title":"Lv 1019 vid Storulvån båda riktningarna","exactlocation":"","description":"Vägen till Storulvån är vinterstängd mellan 1/11 - 31/1.","latitude":63.215427398681641,"longitude":12.406817436218262,"category":0,"subcategory":"Trafikstörning"},{"id":1558430,"priority":4,"createddate":"\/Date(1449257762383+0100)\/","title":"Lv 531 Funäsdalen-Ljungdalen ","exactlocation":"Från Mittådalen till Ljungdalen ","description":"Vägen över Flatruet är nattstängd mellan klockan 22:00-06:00 under perioden 1 December-15 April. Vid besvärligt väder kan vägen stängas med kort varsel även under annan tid.","latitude":62.775653839111328,"longitude":12.765754699707031,"category":0,"subcategory":"Trafikstörning"},{"id":1584607,"priority":3,"createddate":"\/Date(1452100563677+0100)\/","title":"E4 Luleå","exactlocation":"Vid Rutvik","description":"Älg på vägsidan av viltstängslet.","latitude":65.664164532666135,"longitude":22.097077598940629,"category":0,"subcategory":"Trafikstörning"},{"id":1584608,"priority":3,"createddate":"\/Date(1452100587123+0100)\/","title":"Lv 311 Alfta-Edsbyn","exactlocation":"Strax utanför Alfta (Alfta-Malvik)","description":"Älg.","latitude":61.347394241775554,"longitude":16.021487581629916,"category":0,"subcategory":"Trafikstörning"},{"id":1487657,"priority":4,"createddate":"\/Date(1452092894273+0100)\/","title":"Gävleborgs län","exactlocation":"","description":"Övervägande snöiga och isiga vägar. Risk för besvärligt väglag under natten i samband med snöfall.","latitude":61.4704742,"longitude":16.70279,"category":0,"subcategory":"Halkvarning"},{"id":1582790,"priority":3,"createddate":"\/Date(1451884192693+0100)\/","title":"Köpenhamn–Malmö","exactlocation":"","description":"Tåg från Danmark mot Sverige vänder på Kastrup/Copenhagen Airport eftersom det genomförs id-kontroll. Efter genomförd id-kontroll går det tåg vidare mot Sverige. ","latitude":55.584388200455216,"longitude":12.93161681796953,"category":1,"subcategory":"Tåg"},{"id":1584544,"priority":3,"createddate":"\/Date(1452106608030+0100)\/","title":"E4 Ullånger-Höga Kustenbron","exactlocation":"Mellan avfarterna Gallsäter (250-249)","description":"Stillastående långtradare i höger körfält. Syns dåligt, inga varningsblinker.","latitude":62.931980101205831,"longitude":18.095846802316267,"category":0,"subcategory":"Trafikstörning"},{"id":1584637,"priority":3,"createddate":"\/Date(1452104568167+0100)\/","title":"Stockholm-Södertälje","exactlocation":"Huddinge-Tumba","description":"Signal- och växelfel medför risk för förseningar för pendeltågstrafiken sträckan Märsta-Södertälje.","latitude":59.235202612849974,"longitude":17.889805356042487,"category":1,"subcategory":"Tåg"},{"id":1563801,"priority":3,"createddate":"\/Date(1451954127090+0100)\/","title":"Örebro-Borlänge/Falun/Gävle/Mjölby/Lindesberg","exactlocation":"Frövi","description":"Stopp för tågtrafik som passerar Frövi. Prognosen är att tågtrafiken är igång fredag 8/1.","latitude":59.465029844507576,"longitude":15.366200419183267,"category":1,"subcategory":"Tåg"},{"id":1564995,"priority":4,"createddate":"\/Date(1450886984233+0100)\/","title":"Västberga-Älvsjö","exactlocation":"Västberga allé bron som går över järnvägen och Åbyvägen","description":"Bron stängd för renovering från 14 december. Kommer att vara avstängd för biltrafik till sommaren 2017. ","latitude":59.288883209228516,"longitude":18.018430709838867,"category":0,"subcategory":"Vägarbete"},{"id":1583981,"priority":3,"createddate":"\/Date(1452106711107+0100)\/","title":"Roslagsbanan","exactlocation":"Kårsta och Österskärslinjen","description":"Risk för förseningar. Enkelspår mellan Djursholms Ösby och Roslags Näsby. Nedriven kontaktledning vid Bråvalla.","latitude":59.46592547256293,"longitude":18.183400305794923,"category":1,"subcategory":"Tåg"},{"id":1380130,"priority":3,"createddate":"\/Date(1449850891697+0100)\/","title":"Lv190 Gråbovägen","exactlocation":"Bergsjökrysset","description":"Rondell byggs i korsningen Gråbovägen/Bergsjövägen som en del i den större ombyggnaden av Gråbovägen. ","latitude":57.7848526286231,"longitude":12.088115548634436,"category":0,"subcategory":"Vägarbete"},{"id":1584624,"priority":3,"createddate":"\/Date(1452106592930+0100)\/","title":"E14/E45 Brunflo-Östersund","exactlocation":"Någon km före Torvalla","description":"Stopp i körriktning mot Östersund. Stillastående långtradare på enfilig sträcka.","latitude":63.106281280517578,"longitude":14.794865608215332,"category":0,"subcategory":"Trafikstörning"},{"id":1580629,"priority":4,"createddate":"\/Date(1451884373983+0100)\/","title":"Stockholm ","exactlocation":"Fleminggatan och Kungsgatan","description":"Dubbdäcksförbud från 1 januari. Hela Fleminggatan, samt Kungsgatan mellan Sveavägen och Birger Jarlsgatan. ","latitude":59.333367149183388,"longitude":18.054859537572508,"category":0,"subcategory":"Trafikstörning"},{"id":1580627,"priority":3,"createddate":"\/Date(1451982009047+0100)\/","title":"Södermalm ","exactlocation":"Slussenområdet","description":"Bron närmast Riddarfjärden stängd för biltrafik. Katarinavägen stängd för biltrafik i höjd med Katarinagaraget, gående, cyklister och bussar kan passera. Vägen runt huset ned mot Stadsgårdsleden förblir öppen.","latitude":59.321246225653972,"longitude":18.072120243796284,"category":0,"subcategory":"Trafikstörning"},{"id":1582221,"priority":3,"createddate":"\/Date(1451971566260+0100)\/","title":"Högboda","exactlocation":"","description":"Trycket tillbaka i vattenledningarna. Kokningsrekommendationen kvarstår. Nya prover tas måndag till torsdag.","latitude":59.559481703114152,"longitude":13.054766663358778,"category":3,"subcategory":"Vatten"},{"id":1582786,"priority":3,"createddate":"\/Date(1451883855557+0100)\/","title":"Slussen","exactlocation":"","description":"Bussarna fortsätter gå från hållplatserna på Katarinavägen och Södermalmstorg. Hållplatsen Slussplan tas bort, de närliggande hållplatserna Räntmästartrappan och Kornhamnstorg är kvar.\n","latitude":59.320388578164923,"longitude":18.07182700151748,"category":1,"subcategory":"Buss"}]}